--- 
- location: bayshore sunnyvale golf course Mountain View, CA 94043
  created_at: 2010-10-02 21:51:51 Z
  title: Fire1
  updated_at: 2010-10-17 22:32:37 Z
  lng: -122.041969
  id: 1
  description: |-
    Fire inbayshore sunnyvale golf course
    Mountain View, CA 94043
  lat: 37.396892
  icon_uri: ""
- location: N Akron Rd Mountain View, CA 94043
  created_at: 2010-10-02 22:11:11 Z
  title: Plane crash
  updated_at: 2010-10-02 22:11:11 Z
  lng: -122.059608
  id: 2
  description: |-
    Plane crash in N Akron Rd
    Mountain View, CA 94043
  lat: 37.411346
  icon_uri: ""
- location: 489-499 Carnegie Mellon Silicon Valley Mountain View, CA 94043
  created_at: 2010-10-02 22:12:18 Z
  title: Smoke
  updated_at: 2010-10-02 22:12:18 Z
  lng: -122.059822
  id: 3
  description: |-
    Smoke in 489-499 Carnegie Mellon Silicon Valley
    Mountain View, CA 94043
  lat: 37.409948
  icon_uri: ""
- location: "Berry Dr Mountain View, CA 94043\t "
  created_at: 2010-10-02 22:26:49 Z
  title: Fire in Park
  updated_at: 2010-10-02 22:26:49 Z
  lng: -122.061796
  id: 4
  description: |
    fire in Berry Dr
    Mountain View, CA 94043	

  lat: 37.40971
  icon_uri: ""
- location: "Mc Cord Ave Mountain View, CA 94043\t "
  created_at: 2010-10-02 22:27:57 Z
  title: Earthquake
  updated_at: 2010-10-02 22:27:57 Z
  lng: -122.056947
  id: 5
  description: |
    Earthquake in Mc Cord Ave
    Mountain View, CA 94043	

  lat: 37.411073
  icon_uri: ""
- location: ""
  created_at: 2010-10-07 20:27:35 Z
  title: Fire in building 23
  updated_at: 2010-10-07 20:27:35 Z
  lng: -122.059286
  id: 6
  description: test
  lat: 37.410153
  icon_uri: ""
- location: bayshore sunnyvale golf course Mountain View CA 94043
  created_at: 2010-10-08 07:59:46 Z
  title: Fire
  updated_at: 2010-10-08 07:59:46 Z
  lng: -122.3
  id: 8
  description: Fire inbayshore sunnyvale golf course Mountain ViewCA 94043
  lat: 37.4
  icon_uri: 
- location: Glenview Dr & Earl Ave San Bruno, CA 94066
  created_at: 2010-11-03 07:28:17 Z
  title: San Bruno Fire
  updated_at: 2010-11-03 07:28:17 Z
  lng: -122.441812
  id: 9
  description: An explosion and fireball erupted from near the intersection near Glenview Drive and Earl Avenue. People as far as one-half mile away say they felt the boom and heat of the explosion.
  lat: 37.622798
  icon_uri: ""
- location: 1710 Claremont Dr San Bruno, CA 94066
  created_at: 2010-11-03 07:30:03 Z
  title: Fire in Claremont Dr
  updated_at: 2010-11-03 07:30:03 Z
  lng: -122.442412
  id: 10
  description: |-
    1710 Claremont Dr
    San Bruno, CA 94066
  lat: 37.623036
  icon_uri: ""
- location: 1711 Earl Ave San Bruno, CA 94066
  created_at: 2010-11-03 07:31:52 Z
  title: Injury in Earl Ave
  updated_at: 2010-11-03 07:31:52 Z
  lng: -122.442155
  id: 11
  description: |-
    People need help in 1711 Earl Ave
    San Bruno, CA 94066
  lat: 37.622747
  icon_uri: ""
- location: Bayhill Shopping Center San Bruno, CA 94066
  created_at: 2010-11-03 07:33:30 Z
  title: Primary Evacuation Center for fire
  updated_at: 2010-11-03 07:33:30 Z
  lng: -122.425804
  id: 12
  description: |-
    Primary Evacuation Center for fire
    Bayhill Shopping Center
    San Bruno, CA 94066
  lat: 37.626435
  icon_uri: ""
- location: Veterans Memorial Recreation Center
  created_at: 2010-11-03 07:37:39 Z
  title: Red Cross
  updated_at: 2010-11-03 07:37:39 Z
  lng: -122.415075
  id: 13
  description: |-
    HELP: Veterans Memorial Recreation Center and Senior Center
    
     
    The American Red Cross Bay Area Chapter disaster action team is on the scene in San Bruno responding to a fire that has engulfed dozens of homes.
    
     (650) 616-7180 call if you are safe - only if you are in the affected area - they are making a list
  lat: 37.617359
  icon_uri: ""
- location: 1661 Claremont Dr San Bruno, CA 94066
  created_at: 2010-11-03 07:39:11 Z
  title: House on fire
  updated_at: 2010-11-03 07:39:11 Z
  lng: -122.441018
  id: 14
  description: |-
    1661 Claremont Dr
    San Bruno, CA 94066
  lat: 37.623257
  icon_uri: ""
- location: 1000-1136 Fairmont Dr San Bruno, CA 94066
  created_at: 2010-11-03 07:39:57 Z
  title: House on fire
  updated_at: 2010-11-03 07:39:57 Z
  lng: -122.441361
  id: 15
  description: |-
    1000-1136 Fairmont Dr
    San Bruno, CA 94066
  lat: 37.624123
  icon_uri: ""
